[
    {
        "original_name": "東京大學",
        "name": "University of Tokyo",
        "address": "7 Chome-3-1 Hongo, Bunkyo City, Tokyo 113-8654, Japan",
        "location": {
            "lat": 35.7138151,
            "lng": 139.7627372
        },
        "rating": 4.4,
        "types": [
            "university",
            "point_of_interest",
            "establishment"
        ]
    },
    {
        "original_name": "McDonald's 麥當勞BIC CAMERA AKIBA店",
        "name": "McDonald's. BIC CAMERA AKIBA",
        "address": "4 Chome-1-1 Sotokanda, Chiyoda City, Tokyo 101-0021, Japan",
        "location": {
            "lat": 35.699769,
            "lng": 139.771827
        },
        "rating": 3.7,
        "types": [
            "cafe",
            "restaurant",
            "point_of_interest",
            "store",
            "food",
            "establishment"
        ]
    },
    {
        "original_name": "UNDER RAILWAY HOTEL AKIHABARA",
        "name": "UNDER RAILWAY HOTEL AKIHABARA",
        "address": "15-1 Kanda Neribeicho, Chiyoda City, Tokyo 101-0022, Japan",
        "location": {
            "lat": 35.7013477,
            "lng": 139.7733637
        },
        "rating": 4.3,
        "types": [
            "cafe",
            "food",
            "lodging",
            "point_of_interest",
            "establishment"
        ]
    },
    {
        "original_name": "日本科學未來館",
        "name": "The National Museum of Emerging Science and Innovation",
        "address": "2 Chome-3-6 Aomi, Koto City, Tokyo 135-0064, Japan",
        "location": {
            "lat": 35.6193359,
            "lng": 139.7763995
        },
        "rating": 4.1,
        "types": [
            "tourist_attraction",
            "museum",
            "point_of_interest",
            "establishment"
        ]
    },
    {
        "original_name": "東京國立博物館",
        "name": "Tokyo National Museum",
        "address": "13-9 Uenokoen, Taito City, Tokyo 110-8712, Japan",
        "location": {
            "lat": 35.7188351,
            "lng": 139.7765215
        },
        "rating": 4.5,
        "types": [
            "tourist_attraction",
            "museum",
            "point_of_interest",
            "establishment"
        ]
    },
    {
        "original_name": "東京鐵塔",
        "name": "Tokyo Tower",
        "address": "4 Chome-2-8 Shibakoen, Minato City, Tokyo 105-0011, Japan",
        "location": {
            "lat": 35.6585805,
            "lng": 139.7454329
        },
        "rating": 4.4,
        "types": [
            "tourist_attraction",
            "shopping_mall",
            "art_gallery",
            "landmark",
            "point_of_interest",
            "establishment"
        ]
    },
    {
        "original_name": "淺草寺 雷門",
        "name": "Kaminarimon",
        "address": "2 Chome-3-1 Asakusa, Taito City, Tokyo 111-0032, Japan",
        "location": {
            "lat": 35.7111163,
            "lng": 139.7963656
        },
        "rating": 4.5,
        "types": [
            "tourist_attraction",
            "place_of_worship",
            "point_of_interest",
            "establishment"
        ]
    },
    {
        "original_name": "Animate 秋葉原店",
        "name": "Animate Akihabara",
        "address": "4 Chome-3-1 Sotokanda, Chiyoda City, Tokyo 101-0021, Japan",
        "location": {
            "lat": 35.7004408,
            "lng": 139.7716871
        },
        "rating": 4.2,
        "types": [
            "book_store",
            "movie_rental",
            "point_of_interest",
            "store",
            "establishment"
        ]
    },
    {
        "original_name": "大井賽馬場",
        "name": "Oi Racecourse",
        "address": "2 Chome-1-2 Katsushima, Shinagawa City, Tokyo 140-0012, Japan",
        "location": {
            "lat": 35.5922219,
            "lng": 139.740825
        },
        "rating": 4.2,
        "types": [
            "store",
            "point_of_interest",
            "establishment"
        ]
    }
]